{"id": "loc-001", "type": "ATM", "name": "Nova Horizon New York ATM #1", "address": "206 Market St, New York, NY 10001", "latitude": 40.696026437322445, "longitude": -74.00064405896745, "hours": "24/7", "phone_number": null, "metadata": {"services": ["Withdrawal", "Deposit", "PIN Change"], "wheelchair_accessible": true, "lobby_hours": null}}
{"id": "loc-002", "type": "ATM", "name": "Nova Horizon Los Angeles ATM #1", "address": "5614 Broadway, Los Angeles, CA 90001", "latitude": 34.04261503099108, "longitude": -118.26437123001129, "hours": "24/7", "phone_number": null, "metadata": {"services": ["Withdrawal", "Deposit", "PIN Change"], "wheelchair_accessible": true, "lobby_hours": null}}
{"id": "loc-003", "type": "BRANCH", "name": "Nova Horizon Chicago Branch #1", "address": "5735 Sunset Blvd, Chicago, IL 60601", "latitude": 41.87089563803824, "longitude": -87.63826123717092, "hours": "Mon-Fri 9am-5pm, Sat 9am-1pm", "phone_number": "470-555-1711", "metadata": {"services": ["Safe Deposit Boxes", "Financial Advising", "Notary Public"], "wheelchair_accessible": true, "lobby_hours": "9:00 AM - 5:00 PM"}}
{"id": "loc-004", "type": "BRANCH", "name": "Nova Horizon Houston Branch #1", "address": "6301 Broadway, Houston, TX 77001", "latitude": 29.77418390720163, "longitude": -95.36762631451272, "hours": "Mon-Fri 9am-5pm, Sat 9am-1pm", "phone_number": "765-555-5803", "metadata": {"services": ["Safe Deposit Boxes", "Financial Advising", "Notary Public"], "wheelchair_accessible": true, "lobby_hours": "9:00 AM - 5:00 PM"}}
{"id": "loc-005", "type": "ATM", "name": "Nova Horizon Houston ATM #2", "address": "850 Oak Ave, Houston, TX 77001", "latitude": 29.765041128715406, "longitude": -95.3575256898271, "hours": "24/7", "phone_number": null, "metadata": {"services": ["Withdrawal", "Deposit", "PIN Change"], "wheelchair_accessible": true, "lobby_hours": null}}
{"id": "loc-006", "type": "BRANCH", "name": "Nova Horizon Phoenix Branch #1", "address": "3914 Broadway, Phoenix, AZ 85001", "latitude": 33.46478410044732, "longitude": -112.04488670876036, "hours": "Mon-Fri 9am-5pm, Sat 9am-1pm", "phone_number": "589-555-5554", "metadata": {"services": ["Safe Deposit Boxes", "Financial Advising", "Notary Public"], "wheelchair_accessible": true, "lobby_hours": "9:00 AM - 5:00 PM"}}
{"id": "loc-007", "type": "ATM", "name": "Nova Horizon Phoenix ATM #2", "address": "6165 Washington Blvd, Phoenix, AZ 85001", "latitude": 33.456541066655866, "longitude": -112.08211006926179, "hours": "24/7", "phone_number": null, "metadata": {"services": ["Withdrawal", "Deposit", "PIN Change"], "wheelchair_accessible": true, "lobby_hours": null}}
{"id": "loc-008", "type": "BRANCH", "name": "Nova Horizon Philadelphia Branch #1", "address": "1269 Sunset Blvd, Philadelphia, PA 19101", "latitude": 39.96281051046266, "longitude": -75.15309078119249, "hours": "Mon-Fri 9am-5pm, Sat 9am-1pm", "phone_number": "850-555-3803", "metadata": {"services": ["Safe Deposit Boxes", "Financial Advising", "Notary Public"], "wheelchair_accessible": true, "lobby_hours": "9:00 AM - 5:00 PM"}}
{"id": "loc-009", "type": "BRANCH", "name": "Nova Horizon San Antonio Branch #1", "address": "9225 Oak Ave, San Antonio, TX 78201", "latitude": 29.403904149625713, "longitude": -98.50083267349454, "hours": "Mon-Fri 9am-5pm, Sat 9am-1pm", "phone_number": "901-555-6313", "metadata": {"services": ["Safe Deposit Boxes", "Financial Advising", "Notary Public"], "wheelchair_accessible": true, "lobby_hours": "9:00 AM - 5:00 PM"}}
{"id": "loc-010", "type": "BRANCH", "name": "Nova Horizon San Diego Branch #1", "address": "5268 Elm St, San Diego, CA 92101", "latitude": 32.69944288431785, "longitude": -117.18917398536576, "hours": "Mon-Fri 9am-5pm, Sat 9am-1pm", "phone_number": "474-555-2084", "metadata": {"services": ["Safe Deposit Boxes", "Financial Advising", "Notary Public"], "wheelchair_accessible": true, "lobby_hours": "9:00 AM - 5:00 PM"}}
{"id": "loc-011", "type": "BRANCH", "name": "Nova Horizon Dallas Branch #1", "address": "5255 Oak Ave, Dallas, TX 75201", "latitude": 32.80148816745113, "longitude": -96.79296919691129, "hours": "Mon-Fri 9am-5pm, Sat 9am-1pm", "phone_number": "871-555-9179", "metadata": {"services": ["Safe Deposit Boxes", "Financial Advising", "Notary Public"], "wheelchair_accessible": true, "lobby_hours": "9:00 AM - 5:00 PM"}}
{"id": "loc-012", "type": "ATM", "name": "Nova Horizon San Jose ATM #1", "address": "2440 Pine St, San Jose, CA 95101", "latitude": 37.3612809892332, "longitude": -121.87772888778798, "hours": "24/7", "phone_number": null, "metadata": {"services": ["Withdrawal", "Deposit", "PIN Change"], "wheelchair_accessible": true, "lobby_hours": null}}
{"id": "loc-013", "type": "BRANCH", "name": "Nova Horizon Austin Branch #1", "address": "4404 Sunset Blvd, Austin, TX 78701", "latitude": 30.25199765046164, "longitude": -97.73941791195021, "hours": "Mon-Fri 9am-5pm, Sat 9am-1pm", "phone_number": "638-555-7543", "metadata": {"services": ["Safe Deposit Boxes", "Financial Advising", "Notary Public"], "wheelchair_accessible": true, "lobby_hours": "9:00 AM - 5:00 PM"}}
{"id": "loc-014", "type": "BRANCH", "name": "Nova Horizon Jacksonville Branch #1", "address": "2366 Park Ln, Jacksonville, FL 32201", "latitude": 30.323919786622817, "longitude": -81.62586045332064, "hours": "Mon-Fri 9am-5pm, Sat 9am-1pm", "phone_number": "705-555-2489", "metadata": {"services": ["Safe Deposit Boxes", "Financial Advising", "Notary Public"], "wheelchair_accessible": true, "lobby_hours": "9:00 AM - 5:00 PM"}}
{"id": "loc-015", "type": "BRANCH", "name": "Nova Horizon Jacksonville Branch #2", "address": "2721 Elm St, Jacksonville, FL 32201", "latitude": 30.35386617458, "longitude": -81.6765295208391, "hours": "Mon-Fri 9am-5pm, Sat 9am-1pm", "phone_number": "810-555-2040", "metadata": {"services": ["Safe Deposit Boxes", "Financial Advising", "Notary Public"], "wheelchair_accessible": true, "lobby_hours": "9:00 AM - 5:00 PM"}}
{"id": "loc-016", "type": "BRANCH", "name": "Nova Horizon Fort Worth Branch #1", "address": "7768 Park Ln, Fort Worth, TX 76101", "latitude": 32.748586038700466, "longitude": -97.32504669429832, "hours": "Mon-Fri 9am-5pm, Sat 9am-1pm", "phone_number": "457-555-1188", "metadata": {"services": ["Safe Deposit Boxes", "Financial Advising", "Notary Public"], "wheelchair_accessible": true, "lobby_hours": "9:00 AM - 5:00 PM"}}
{"id": "loc-017", "type": "BRANCH", "name": "Nova Horizon Fort Worth Branch #2", "address": "4471 Washington Blvd, Fort Worth, TX 76101", "latitude": 32.76640262214159, "longitude": -97.32858178017547, "hours": "Mon-Fri 9am-5pm, Sat 9am-1pm", "phone_number": "314-555-5808", "metadata": {"services": ["Safe Deposit Boxes", "Financial Advising", "Notary Public"], "wheelchair_accessible": true, "lobby_hours": "9:00 AM - 5:00 PM"}}
{"id": "loc-018", "type": "BRANCH", "name": "Nova Horizon Columbus Branch #1", "address": "4415 Park Ln, Columbus, OH 43201", "latitude": 39.957285915040146, "longitude": -83.00157657762026, "hours": "Mon-Fri 9am-5pm, Sat 9am-1pm", "phone_number": "980-555-3927", "metadata": {"services": ["Safe Deposit Boxes", "Financial Advising", "Notary Public"], "wheelchair_accessible": true, "lobby_hours": "9:00 AM - 5:00 PM"}}
{"id": "loc-019", "type": "BRANCH", "name": "Nova Horizon Columbus Branch #2", "address": "8417 Sunset Blvd, Columbus, OH 43201", "latitude": 39.9834311141902, "longitude": -83.01089331251309, "hours": "Mon-Fri 9am-5pm, Sat 9am-1pm", "phone_number": "403-555-3504", "metadata": {"services": ["Safe Deposit Boxes", "Financial Advising", "Notary Public"], "wheelchair_accessible": true, "lobby_hours": "9:00 AM - 5:00 PM"}}
{"id": "loc-020", "type": "BRANCH", "name": "Nova Horizon Charlotte Branch #1", "address": "8789 Main St, Charlotte, NC 28201", "latitude": 35.21953483115547, "longitude": -80.86340705785481, "hours": "Mon-Fri 9am-5pm, Sat 9am-1pm", "phone_number": "813-555-6310", "metadata": {"services": ["Safe Deposit Boxes", "Financial Advising", "Notary Public"], "wheelchair_accessible": true, "lobby_hours": "9:00 AM - 5:00 PM"}}
{"id": "loc-021", "type": "ATM", "name": "Nova Horizon Charlotte ATM #2", "address": "5138 Oak Ave, Charlotte, NC 28201", "latitude": 35.19826860454315, "longitude": -80.81735408302413, "hours": "24/7", "phone_number": null, "metadata": {"services": ["Withdrawal", "Deposit", "PIN Change"], "wheelchair_accessible": true, "lobby_hours": null}}
{"id": "loc-022", "type": "BRANCH", "name": "Nova Horizon San Francisco Branch #1", "address": "1390 Broadway, San Francisco, CA 94101", "latitude": 37.75935229554683, "longitude": -122.41535858337866, "hours": "Mon-Fri 9am-5pm, Sat 9am-1pm", "phone_number": "949-555-8962", "metadata": {"services": ["Safe Deposit Boxes", "Financial Advising", "Notary Public"], "wheelchair_accessible": true, "lobby_hours": "9:00 AM - 5:00 PM"}}
{"id": "loc-023", "type": "BRANCH", "name": "Nova Horizon Indianapolis Branch #1", "address": "2160 Market St, Indianapolis, IN 46201", "latitude": 39.79707906962064, "longitude": -86.15613762982824, "hours": "Mon-Fri 9am-5pm, Sat 9am-1pm", "phone_number": "875-555-8787", "metadata": {"services": ["Safe Deposit Boxes", "Financial Advising", "Notary Public"], "wheelchair_accessible": true, "lobby_hours": "9:00 AM - 5:00 PM"}}
{"id": "loc-024", "type": "BRANCH", "name": "Nova Horizon Seattle Branch #1", "address": "8745 Sunset Blvd, Seattle, WA 98101", "latitude": 47.6330109207823, "longitude": -122.35219238246155, "hours": "Mon-Fri 9am-5pm, Sat 9am-1pm", "phone_number": "633-555-4470", "metadata": {"services": ["Safe Deposit Boxes", "Financial Advising", "Notary Public"], "wheelchair_accessible": true, "lobby_hours": "9:00 AM - 5:00 PM"}}
{"id": "loc-025", "type": "BRANCH", "name": "Nova Horizon Seattle Branch #2", "address": "6218 Maple Ave, Seattle, WA 98101", "latitude": 47.61897693836915, "longitude": -122.33816046200015, "hours": "Mon-Fri 9am-5pm, Sat 9am-1pm", "phone_number": "729-555-8397", "metadata": {"services": ["Safe Deposit Boxes", "Financial Advising", "Notary Public"], "wheelchair_accessible": true, "lobby_hours": "9:00 AM - 5:00 PM"}}
{"id": "loc-026", "type": "BRANCH", "name": "Nova Horizon Denver Branch #1", "address": "444 Sunset Blvd, Denver, CO 80201", "latitude": 39.72407433681996, "longitude": -105.01645844622043, "hours": "Mon-Fri 9am-5pm, Sat 9am-1pm", "phone_number": "767-555-4770", "metadata": {"services": ["Safe Deposit Boxes", "Financial Advising", "Notary Public"], "wheelchair_accessible": true, "lobby_hours": "9:00 AM - 5:00 PM"}}
{"id": "loc-027", "type": "BRANCH", "name": "Nova Horizon Washington Branch #1", "address": "1064 Oak Ave, Washington, DC 20001", "latitude": 38.87763145033911, "longitude": -77.02442954320709, "hours": "Mon-Fri 9am-5pm, Sat 9am-1pm", "phone_number": "269-555-1514", "metadata": {"services": ["Safe Deposit Boxes", "Financial Advising", "Notary Public"], "wheelchair_accessible": true, "lobby_hours": "9:00 AM - 5:00 PM"}}
{"id": "loc-028", "type": "ATM", "name": "Nova Horizon Boston ATM #1", "address": "8053 Oak Ave, Boston, MA 02101", "latitude": 42.33435144099332, "longitude": -71.07461972193785, "hours": "24/7", "phone_number": null, "metadata": {"services": ["Withdrawal", "Deposit", "PIN Change"], "wheelchair_accessible": true, "lobby_hours": null}}
{"id": "loc-029", "type": "BRANCH", "name": "Nova Horizon El Paso Branch #1", "address": "9540 Maple Ave, El Paso, TX 79901", "latitude": 31.77530115395286, "longitude": -106.46205701549155, "hours": "Mon-Fri 9am-5pm, Sat 9am-1pm", "phone_number": "448-555-8749", "metadata": {"services": ["Safe Deposit Boxes", "Financial Advising", "Notary Public"], "wheelchair_accessible": true, "lobby_hours": "9:00 AM - 5:00 PM"}}
{"id": "loc-030", "type": "ATM", "name": "Nova Horizon Nashville ATM #1", "address": "7162 Washington Blvd, Nashville, TN 37201", "latitude": 36.144124594861715, "longitude": -86.80578415114627, "hours": "24/7", "phone_number": null, "metadata": {"services": ["Withdrawal", "Deposit", "PIN Change"], "wheelchair_accessible": true, "lobby_hours": null}}
{"id": "loc-031", "type": "ATM", "name": "Nova Horizon Detroit ATM #1", "address": "987 Broadway, Detroit, MI 48201", "latitude": 42.326066136562986, "longitude": -83.02396979509783, "hours": "24/7", "phone_number": null, "metadata": {"services": ["Withdrawal", "Deposit", "PIN Change"], "wheelchair_accessible": true, "lobby_hours": null}}
{"id": "loc-032", "type": "BRANCH", "name": "Nova Horizon Oklahoma City Branch #1", "address": "1890 Oak Ave, Oklahoma City, OK 73101", "latitude": 35.461757276926136, "longitude": -97.52604184367631, "hours": "Mon-Fri 9am-5pm, Sat 9am-1pm", "phone_number": "396-555-4116", "metadata": {"services": ["Safe Deposit Boxes", "Financial Advising", "Notary Public"], "wheelchair_accessible": true, "lobby_hours": "9:00 AM - 5:00 PM"}}
{"id": "loc-033", "type": "ATM", "name": "Nova Horizon Portland ATM #1", "address": "7679 Oak Ave, Portland, OR 97201", "latitude": 45.493610937825686, "longitude": -122.69739071785276, "hours": "24/7", "phone_number": null, "metadata": {"services": ["Withdrawal", "Deposit", "PIN Change"], "wheelchair_accessible": true, "lobby_hours": null}}
{"id": "loc-034", "type": "BRANCH", "name": "Nova Horizon Las Vegas Branch #1", "address": "9116 Broadway, Las Vegas, NV 89101", "latitude": 36.168187844703205, "longitude": -115.11811905371428, "hours": "Mon-Fri 9am-5pm, Sat 9am-1pm", "phone_number": "251-555-9856", "metadata": {"services": ["Safe Deposit Boxes", "Financial Advising", "Notary Public"], "wheelchair_accessible": true, "lobby_hours": "9:00 AM - 5:00 PM"}}
{"id": "loc-035", "type": "BRANCH", "name": "Nova Horizon Memphis Branch #1", "address": "3972 Market St, Memphis, TN 38101", "latitude": 35.169661655104804, "longitude": -90.02086022456292, "hours": "Mon-Fri 9am-5pm, Sat 9am-1pm", "phone_number": "616-555-8956", "metadata": {"services": ["Safe Deposit Boxes", "Financial Advising", "Notary Public"], "wheelchair_accessible": true, "lobby_hours": "9:00 AM - 5:00 PM"}}
{"id": "loc-036", "type": "ATM", "name": "Nova Horizon Memphis ATM #2", "address": "1060 Market St, Memphis, TN 38101", "latitude": 35.132324837951955, "longitude": -90.05493758244704, "hours": "24/7", "phone_number": null, "metadata": {"services": ["Withdrawal", "Deposit", "PIN Change"], "wheelchair_accessible": true, "lobby_hours": null}}
{"id": "loc-037", "type": "BRANCH", "name": "Nova Horizon Louisville Branch #1", "address": "4445 Maple Ave, Louisville, KY 40201", "latitude": 38.24543838713861, "longitude": -85.72938146937321, "hours": "Mon-Fri 9am-5pm, Sat 9am-1pm", "phone_number": "492-555-7930", "metadata": {"services": ["Safe Deposit Boxes", "Financial Advising", "Notary Public"], "wheelchair_accessible": true, "lobby_hours": "9:00 AM - 5:00 PM"}}
{"id": "loc-038", "type": "ATM", "name": "Nova Horizon Louisville ATM #2", "address": "1058 Sunset Blvd, Louisville, KY 40201", "latitude": 38.23198780951644, "longitude": -85.77069753047033, "hours": "24/7", "phone_number": null, "metadata": {"services": ["Withdrawal", "Deposit", "PIN Change"], "wheelchair_accessible": true, "lobby_hours": null}}
{"id": "loc-039", "type": "BRANCH", "name": "Nova Horizon Baltimore Branch #1", "address": "5238 Main St, Baltimore, MD 21201", "latitude": 39.30454423072734, "longitude": -76.63854254571142, "hours": "Mon-Fri 9am-5pm, Sat 9am-1pm", "phone_number": "251-555-8811", "metadata": {"services": ["Safe Deposit Boxes", "Financial Advising", "Notary Public"], "wheelchair_accessible": true, "lobby_hours": "9:00 AM - 5:00 PM"}}
{"id": "loc-040", "type": "BRANCH", "name": "Nova Horizon Baltimore Branch #2", "address": "3144 Broadway, Baltimore, MD 21201", "latitude": 39.263812774783716, "longitude": -76.61173029018039, "hours": "Mon-Fri 9am-5pm, Sat 9am-1pm", "phone_number": "809-555-2113", "metadata": {"services": ["Safe Deposit Boxes", "Financial Advising", "Notary Public"], "wheelchair_accessible": true, "lobby_hours": "9:00 AM - 5:00 PM"}}
{"id": "loc-041", "type": "BRANCH", "name": "Nova Horizon Milwaukee Branch #1", "address": "9433 Oak Ave, Milwaukee, WI 53201", "latitude": 43.03312653307909, "longitude": -87.88000423236625, "hours": "Mon-Fri 9am-5pm, Sat 9am-1pm", "phone_number": "792-555-1651", "metadata": {"services": ["Safe Deposit Boxes", "Financial Advising", "Notary Public"], "wheelchair_accessible": true, "lobby_hours": "9:00 AM - 5:00 PM"}}
{"id": "loc-042", "type": "BRANCH", "name": "Nova Horizon Albuquerque Branch #1", "address": "9662 Sunset Blvd, Albuquerque, NM 87101", "latitude": 35.091562890619926, "longitude": -106.65594650507985, "hours": "Mon-Fri 9am-5pm, Sat 9am-1pm", "phone_number": "735-555-6183", "metadata": {"services": ["Safe Deposit Boxes", "Financial Advising", "Notary Public"], "wheelchair_accessible": true, "lobby_hours": "9:00 AM - 5:00 PM"}}
{"id": "loc-043", "type": "ATM", "name": "Nova Horizon Albuquerque ATM #2", "address": "4010 Pine St, Albuquerque, NM 87101", "latitude": 35.06665555196541, "longitude": -106.63812849195263, "hours": "24/7", "phone_number": null, "metadata": {"services": ["Withdrawal", "Deposit", "PIN Change"], "wheelchair_accessible": true, "lobby_hours": null}}
{"id": "loc-044", "type": "ATM", "name": "Nova Horizon Tucson ATM #1", "address": "7591 Washington Blvd, Tucson, AZ 85701", "latitude": 32.20045269692765, "longitude": -110.96596995266974, "hours": "24/7", "phone_number": null, "metadata": {"services": ["Withdrawal", "Deposit", "PIN Change"], "wheelchair_accessible": true, "lobby_hours": null}}
{"id": "loc-045", "type": "BRANCH", "name": "Nova Horizon Fresno Branch #1", "address": "9324 Broadway, Fresno, CA 93701", "latitude": 36.70835892741305, "longitude": -119.77983044467041, "hours": "Mon-Fri 9am-5pm, Sat 9am-1pm", "phone_number": "275-555-9808", "metadata": {"services": ["Safe Deposit Boxes", "Financial Advising", "Notary Public"], "wheelchair_accessible": true, "lobby_hours": "9:00 AM - 5:00 PM"}}
{"id": "loc-046", "type": "BRANCH", "name": "Nova Horizon Sacramento Branch #1", "address": "5818 Broadway, Sacramento, CA 95801", "latitude": 38.58195308164293, "longitude": -121.51645260577801, "hours": "Mon-Fri 9am-5pm, Sat 9am-1pm", "phone_number": "450-555-7054", "metadata": {"services": ["Safe Deposit Boxes", "Financial Advising", "Notary Public"], "wheelchair_accessible": true, "lobby_hours": "9:00 AM - 5:00 PM"}}
{"id": "loc-047", "type": "BRANCH", "name": "Nova Horizon Kansas City Branch #1", "address": "9000 Pine St, Kansas City, MO 64101", "latitude": 39.086799243472996, "longitude": -94.58230892561953, "hours": "Mon-Fri 9am-5pm, Sat 9am-1pm", "phone_number": "826-555-9666", "metadata": {"services": ["Safe Deposit Boxes", "Financial Advising", "Notary Public"], "wheelchair_accessible": true, "lobby_hours": "9:00 AM - 5:00 PM"}}
{"id": "loc-048", "type": "BRANCH", "name": "Nova Horizon Kansas City Branch #2", "address": "1797 Market St, Kansas City, MO 64101", "latitude": 39.10977179222275, "longitude": -94.57532386305061, "hours": "Mon-Fri 9am-5pm, Sat 9am-1pm", "phone_number": "470-555-2891", "metadata": {"services": ["Safe Deposit Boxes", "Financial Advising", "Notary Public"], "wheelchair_accessible": true, "lobby_hours": "9:00 AM - 5:00 PM"}}
{"id": "loc-049", "type": "BRANCH", "name": "Nova Horizon Mesa Branch #1", "address": "4716 Sunset Blvd, Mesa, AZ 85201", "latitude": 33.42974500103886, "longitude": -111.8521731254135, "hours": "Mon-Fri 9am-5pm, Sat 9am-1pm", "phone_number": "415-555-6617", "metadata": {"services": ["Safe Deposit Boxes", "Financial Advising", "Notary Public"], "wheelchair_accessible": true, "lobby_hours": "9:00 AM - 5:00 PM"}}
{"id": "loc-050", "type": "BRANCH", "name": "Nova Horizon Atlanta Branch #1", "address": "8380 Maple Ave, Atlanta, GA 30301", "latitude": 33.76024982772808, "longitude": -84.36682523107649, "hours": "Mon-Fri 9am-5pm, Sat 9am-1pm", "phone_number": "457-555-1832", "metadata": {"services": ["Safe Deposit Boxes", "Financial Advising", "Notary Public"], "wheelchair_accessible": true, "lobby_hours": "9:00 AM - 5:00 PM"}}
{"id": "loc-051", "type": "BRANCH", "name": "Nova Horizon Omaha Branch #1", "address": "822 Main St, Omaha, NE 68101", "latitude": 41.264557066838556, "longitude": -95.91473911463767, "hours": "Mon-Fri 9am-5pm, Sat 9am-1pm", "phone_number": "541-555-3143", "metadata": {"services": ["Safe Deposit Boxes", "Financial Advising", "Notary Public"], "wheelchair_accessible": true, "lobby_hours": "9:00 AM - 5:00 PM"}}
{"id": "loc-052", "type": "ATM", "name": "Nova Horizon Colorado Springs ATM #1", "address": "7107 Park Ln, Colorado Springs, CO 80901", "latitude": 38.813594918576435, "longitude": -104.82488986928834, "hours": "24/7", "phone_number": null, "metadata": {"services": ["Withdrawal", "Deposit", "PIN Change"], "wheelchair_accessible": true, "lobby_hours": null}}
{"id": "loc-053", "type": "BRANCH", "name": "Nova Horizon Raleigh Branch #1", "address": "2542 Park Ln, Raleigh, NC 27601", "latitude": 35.756312432835365, "longitude": -78.6114969436572, "hours": "Mon-Fri 9am-5pm, Sat 9am-1pm", "phone_number": "236-555-7049", "metadata": {"services": ["Safe Deposit Boxes", "Financial Advising", "Notary Public"], "wheelchair_accessible": true, "lobby_hours": "9:00 AM - 5:00 PM"}}
{"id": "loc-054", "type": "BRANCH", "name": "Nova Horizon Virginia Beach Branch #1", "address": "6074 Main St, Virginia Beach, VA 23450", "latitude": 36.848687202772844, "longitude": -76.00549026850986, "hours": "Mon-Fri 9am-5pm, Sat 9am-1pm", "phone_number": "566-555-4441", "metadata": {"services": ["Safe Deposit Boxes", "Financial Advising", "Notary Public"], "wheelchair_accessible": true, "lobby_hours": "9:00 AM - 5:00 PM"}}
{"id": "loc-055", "type": "BRANCH", "name": "Nova Horizon Miami Branch #1", "address": "9273 Elm St, Miami, FL 33101", "latitude": 25.771716004638133, "longitude": -80.20057928192313, "hours": "Mon-Fri 9am-5pm, Sat 9am-1pm", "phone_number": "835-555-3532", "metadata": {"services": ["Safe Deposit Boxes", "Financial Advising", "Notary Public"], "wheelchair_accessible": true, "lobby_hours": "9:00 AM - 5:00 PM"}}
{"id": "loc-056", "type": "BRANCH", "name": "Nova Horizon Oakland Branch #1", "address": "3000 Elm St, Oakland, CA 94601", "latitude": 37.8262763417732, "longitude": -122.24262763802413, "hours": "Mon-Fri 9am-5pm, Sat 9am-1pm", "phone_number": "225-555-3938", "metadata": {"services": ["Safe Deposit Boxes", "Financial Advising", "Notary Public"], "wheelchair_accessible": true, "lobby_hours": "9:00 AM - 5:00 PM"}}
{"id": "loc-057", "type": "ATM", "name": "Nova Horizon Minneapolis ATM #1", "address": "4165 Pine St, Minneapolis, MN 55401", "latitude": 44.99474318976886, "longitude": -93.2702972100069, "hours": "24/7", "phone_number": null, "metadata": {"services": ["Withdrawal", "Deposit", "PIN Change"], "wheelchair_accessible": true, "lobby_hours": null}}
{"id": "loc-058", "type": "BRANCH", "name": "Nova Horizon Tulsa Branch #1", "address": "6367 Main St, Tulsa, OK 74101", "latitude": 36.13355187057885, "longitude": -95.9807233087116, "hours": "Mon-Fri 9am-5pm, Sat 9am-1pm", "phone_number": "681-555-4644", "metadata": {"services": ["Safe Deposit Boxes", "Financial Advising", "Notary Public"], "wheelchair_accessible": true, "lobby_hours": "9:00 AM - 5:00 PM"}}
{"id": "loc-059", "type": "BRANCH", "name": "Nova Horizon Tulsa Branch #2", "address": "5100 Oak Ave, Tulsa, OK 74101", "latitude": 36.17299519633582, "longitude": -95.99518180591926, "hours": "Mon-Fri 9am-5pm, Sat 9am-1pm", "phone_number": "428-555-1387", "metadata": {"services": ["Safe Deposit Boxes", "Financial Advising", "Notary Public"], "wheelchair_accessible": true, "lobby_hours": "9:00 AM - 5:00 PM"}}
{"id": "loc-060", "type": "BRANCH", "name": "Nova Horizon Bakersfield Branch #1", "address": "1237 Pine St, Bakersfield, CA 93301", "latitude": 35.367207958713884, "longitude": -119.03198381633861, "hours": "Mon-Fri 9am-5pm, Sat 9am-1pm", "phone_number": "559-555-9346", "metadata": {"services": ["Safe Deposit Boxes", "Financial Advising", "Notary Public"], "wheelchair_accessible": true, "lobby_hours": "9:00 AM - 5:00 PM"}}
{"id": "loc-061", "type": "ATM", "name": "Nova Horizon Wichita ATM #1", "address": "5525 Main St, Wichita, KS 67201", "latitude": 37.697971087101614, "longitude": -97.30948033020368, "hours": "24/7", "phone_number": null, "metadata": {"services": ["Withdrawal", "Deposit", "PIN Change"], "wheelchair_accessible": true, "lobby_hours": null}}
{"id": "loc-062", "type": "BRANCH", "name": "Nova Horizon Arlington Branch #1", "address": "9612 Pine St, Arlington, TX 76001", "latitude": 32.75832230469454, "longitude": -97.12242708821658, "hours": "Mon-Fri 9am-5pm, Sat 9am-1pm", "phone_number": "239-555-2776", "metadata": {"services": ["Safe Deposit Boxes", "Financial Advising", "Notary Public"], "wheelchair_accessible": true, "lobby_hours": "9:00 AM - 5:00 PM"}}
{"id": "loc-063", "type": "ATM", "name": "Nova Horizon Aurora ATM #1", "address": "7249 Sunset Blvd, Aurora, CO 80010", "latitude": 39.72014122670079, "longitude": -104.81471430930779, "hours": "24/7", "phone_number": null, "metadata": {"services": ["Withdrawal", "Deposit", "PIN Change"], "wheelchair_accessible": true, "lobby_hours": null}}
{"id": "loc-064", "type": "BRANCH", "name": "Nova Horizon Tampa Branch #1", "address": "4273 Main St, Tampa, FL 33601", "latitude": 27.943711726000686, "longitude": -82.4526047173902, "hours": "Mon-Fri 9am-5pm, Sat 9am-1pm", "phone_number": "925-555-8144", "metadata": {"services": ["Safe Deposit Boxes", "Financial Advising", "Notary Public"], "wheelchair_accessible": true, "lobby_hours": "9:00 AM - 5:00 PM"}}
{"id": "loc-065", "type": "BRANCH", "name": "Nova Horizon New Orleans Branch #1", "address": "3328 Washington Blvd, New Orleans, LA 70112", "latitude": 29.952295220913996, "longitude": -90.053109347818, "hours": "Mon-Fri 9am-5pm, Sat 9am-1pm", "phone_number": "641-555-2146", "metadata": {"services": ["Safe Deposit Boxes", "Financial Advising", "Notary Public"], "wheelchair_accessible": true, "lobby_hours": "9:00 AM - 5:00 PM"}}
{"id": "loc-066", "type": "ATM", "name": "Nova Horizon Cleveland ATM #1", "address": "2141 Pine St, Cleveland, OH 44101", "latitude": 41.506689324596785, "longitude": -81.68459675142407, "hours": "24/7", "phone_number": null, "metadata": {"services": ["Withdrawal", "Deposit", "PIN Change"], "wheelchair_accessible": true, "lobby_hours": null}}
{"id": "loc-067", "type": "ATM", "name": "Nova Horizon Honolulu ATM #1", "address": "4944 Park Ln, Honolulu, HI 96801", "latitude": 21.316913574246342, "longitude": -157.86872902570857, "hours": "24/7", "phone_number": null, "metadata": {"services": ["Withdrawal", "Deposit", "PIN Change"], "wheelchair_accessible": true, "lobby_hours": null}}
{"id": "loc-068", "type": "BRANCH", "name": "Nova Horizon Anaheim Branch #1", "address": "6311 Market St, Anaheim, CA 92801", "latitude": 33.81423726794355, "longitude": -117.91907321997363, "hours": "Mon-Fri 9am-5pm, Sat 9am-1pm", "phone_number": "830-555-5930", "metadata": {"services": ["Safe Deposit Boxes", "Financial Advising", "Notary Public"], "wheelchair_accessible": true, "lobby_hours": "9:00 AM - 5:00 PM"}}
{"id": "loc-069", "type": "ATM", "name": "Nova Horizon Anaheim ATM #2", "address": "4800 Oak Ave, Anaheim, CA 92801", "latitude": 33.83947623278814, "longitude": -117.94427564361816, "hours": "24/7", "phone_number": null, "metadata": {"services": ["Withdrawal", "Deposit", "PIN Change"], "wheelchair_accessible": true, "lobby_hours": null}}
{"id": "loc-070", "type": "ATM", "name": "Nova Horizon Henderson ATM #1", "address": "5379 Maple Ave, Henderson, NV 89002", "latitude": 36.05664552964865, "longitude": -114.97530030577121, "hours": "24/7", "phone_number": null, "metadata": {"services": ["Withdrawal", "Deposit", "PIN Change"], "wheelchair_accessible": true, "lobby_hours": null}}
{"id": "loc-071", "type": "ATM", "name": "Nova Horizon Santa Ana ATM #1", "address": "7852 Market St, Santa Ana, CA 92701", "latitude": 33.74212958795829, "longitude": -117.88487791594065, "hours": "24/7", "phone_number": null, "metadata": {"services": ["Withdrawal", "Deposit", "PIN Change"], "wheelchair_accessible": true, "lobby_hours": null}}
{"id": "loc-072", "type": "BRANCH", "name": "Nova Horizon St. Louis Branch #1", "address": "5591 Broadway, St. Louis, MO 63101", "latitude": 38.61402718429959, "longitude": -90.18956876982169, "hours": "Mon-Fri 9am-5pm, Sat 9am-1pm", "phone_number": "969-555-4848", "metadata": {"services": ["Safe Deposit Boxes", "Financial Advising", "Notary Public"], "wheelchair_accessible": true, "lobby_hours": "9:00 AM - 5:00 PM"}}
{"id": "loc-073", "type": "ATM", "name": "Nova Horizon Riverside ATM #1", "address": "500 Main St, Riverside, CA 92501", "latitude": 33.96407843995984, "longitude": -117.39355220403641, "hours": "24/7", "phone_number": null, "metadata": {"services": ["Withdrawal", "Deposit", "PIN Change"], "wheelchair_accessible": true, "lobby_hours": null}}
{"id": "loc-074", "type": "BRANCH", "name": "Nova Horizon Corpus Christi Branch #1", "address": "1293 Maple Ave, Corpus Christi, TX 78401", "latitude": 27.82963616136691, "longitude": -97.38972356161636, "hours": "Mon-Fri 9am-5pm, Sat 9am-1pm", "phone_number": "624-555-4185", "metadata": {"services": ["Safe Deposit Boxes", "Financial Advising", "Notary Public"], "wheelchair_accessible": true, "lobby_hours": "9:00 AM - 5:00 PM"}}
{"id": "loc-075", "type": "ATM", "name": "Nova Horizon Pittsburgh ATM #1", "address": "190 Broadway, Pittsburgh, PA 15201", "latitude": 40.44026263014063, "longitude": -80.0112609336253, "hours": "24/7", "phone_number": null, "metadata": {"services": ["Withdrawal", "Deposit", "PIN Change"], "wheelchair_accessible": true, "lobby_hours": null}}
{"id": "loc-076", "type": "ATM", "name": "Nova Horizon Lexington ATM #1", "address": "8586 Maple Ave, Lexington, KY 40502", "latitude": 38.02373046820874, "longitude": -84.48245340862961, "hours": "24/7", "phone_number": null, "metadata": {"services": ["Withdrawal", "Deposit", "PIN Change"], "wheelchair_accessible": true, "lobby_hours": null}}
{"id": "loc-077", "type": "BRANCH", "name": "Nova Horizon Anchorage Branch #1", "address": "2088 Maple Ave, Anchorage, AK 99501", "latitude": 61.221544347642, "longitude": -149.87525179913266, "hours": "Mon-Fri 9am-5pm, Sat 9am-1pm", "phone_number": "336-555-8612", "metadata": {"services": ["Safe Deposit Boxes", "Financial Advising", "Notary Public"], "wheelchair_accessible": true, "lobby_hours": "9:00 AM - 5:00 PM"}}
{"id": "loc-078", "type": "ATM", "name": "Nova Horizon Stockton ATM #1", "address": "8370 Elm St, Stockton, CA 95201", "latitude": 37.98470237650659, "longitude": -121.26731444445137, "hours": "24/7", "phone_number": null, "metadata": {"services": ["Withdrawal", "Deposit", "PIN Change"], "wheelchair_accessible": true, "lobby_hours": null}}
{"id": "loc-079", "type": "BRANCH", "name": "Nova Horizon Cincinnati Branch #1", "address": "2707 Maple Ave, Cincinnati, OH 45201", "latitude": 39.12293415018328, "longitude": -84.50912768296335, "hours": "Mon-Fri 9am-5pm, Sat 9am-1pm", "phone_number": "660-555-5246", "metadata": {"services": ["Safe Deposit Boxes", "Financial Advising", "Notary Public"], "wheelchair_accessible": true, "lobby_hours": "9:00 AM - 5:00 PM"}}
{"id": "loc-080", "type": "BRANCH", "name": "Nova Horizon Cincinnati Branch #2", "address": "8640 Maple Ave, Cincinnati, OH 45201", "latitude": 39.123491773270516, "longitude": -84.52536131881216, "hours": "Mon-Fri 9am-5pm, Sat 9am-1pm", "phone_number": "841-555-4919", "metadata": {"services": ["Safe Deposit Boxes", "Financial Advising", "Notary Public"], "wheelchair_accessible": true, "lobby_hours": "9:00 AM - 5:00 PM"}}
{"id": "loc-081", "type": "ATM", "name": "Nova Horizon St. Paul ATM #1", "address": "3941 Pine St, St. Paul, MN 55101", "latitude": 44.95009235559589, "longitude": -93.07718730824334, "hours": "24/7", "phone_number": null, "metadata": {"services": ["Withdrawal", "Deposit", "PIN Change"], "wheelchair_accessible": true, "lobby_hours": null}}
{"id": "loc-082", "type": "ATM", "name": "Nova Horizon Greensboro ATM #1", "address": "2367 Market St, Greensboro, NC 27401", "latitude": 36.06178257410513, "longitude": -79.7895908666489, "hours": "24/7", "phone_number": null, "metadata": {"services": ["Withdrawal", "Deposit", "PIN Change"], "wheelchair_accessible": true, "lobby_hours": null}}
{"id": "loc-083", "type": "BRANCH", "name": "Nova Horizon Toledo Branch #1", "address": "3605 Broadway, Toledo, OH 43601", "latitude": 41.64578211754588, "longitude": -83.55873168400537, "hours": "Mon-Fri 9am-5pm, Sat 9am-1pm", "phone_number": "624-555-7678", "metadata": {"services": ["Safe Deposit Boxes", "Financial Advising", "Notary Public"], "wheelchair_accessible": true, "lobby_hours": "9:00 AM - 5:00 PM"}}
{"id": "loc-084", "type": "BRANCH", "name": "Nova Horizon Newark Branch #1", "address": "1120 Oak Ave, Newark, NJ 07101", "latitude": 40.725552883462285, "longitude": -74.17444454179893, "hours": "Mon-Fri 9am-5pm, Sat 9am-1pm", "phone_number": "630-555-7381", "metadata": {"services": ["Safe Deposit Boxes", "Financial Advising", "Notary Public"], "wheelchair_accessible": true, "lobby_hours": "9:00 AM - 5:00 PM"}}
{"id": "loc-085", "type": "BRANCH", "name": "Nova Horizon Newark Branch #2", "address": "6332 Maple Ave, Newark, NJ 07101", "latitude": 40.75710392193824, "longitude": -74.1564643254329, "hours": "Mon-Fri 9am-5pm, Sat 9am-1pm", "phone_number": "206-555-6763", "metadata": {"services": ["Safe Deposit Boxes", "Financial Advising", "Notary Public"], "wheelchair_accessible": true, "lobby_hours": "9:00 AM - 5:00 PM"}}
{"id": "loc-086", "type": "BRANCH", "name": "Nova Horizon Plano Branch #1", "address": "6965 Park Ln, Plano, TX 75023", "latitude": 33.00771675914234, "longitude": -96.70550080111617, "hours": "Mon-Fri 9am-5pm, Sat 9am-1pm", "phone_number": "965-555-9947", "metadata": {"services": ["Safe Deposit Boxes", "Financial Advising", "Notary Public"], "wheelchair_accessible": true, "lobby_hours": "9:00 AM - 5:00 PM"}}
{"id": "loc-087", "type": "BRANCH", "name": "Nova Horizon Plano Branch #2", "address": "8056 Main St, Plano, TX 75023", "latitude": 33.019093768653015, "longitude": -96.7125238812942, "hours": "Mon-Fri 9am-5pm, Sat 9am-1pm", "phone_number": "598-555-6507", "metadata": {"services": ["Safe Deposit Boxes", "Financial Advising", "Notary Public"], "wheelchair_accessible": true, "lobby_hours": "9:00 AM - 5:00 PM"}}
{"id": "loc-088", "type": "ATM", "name": "Nova Horizon Lincoln ATM #1", "address": "2191 Sunset Blvd, Lincoln, NE 68501", "latitude": 40.83925088265764, "longitude": -96.66476966021624, "hours": "24/7", "phone_number": null, "metadata": {"services": ["Withdrawal", "Deposit", "PIN Change"], "wheelchair_accessible": true, "lobby_hours": null}}
{"id": "loc-089", "type": "BRANCH", "name": "Nova Horizon Orlando Branch #1", "address": "9797 Sunset Blvd, Orlando, FL 32801", "latitude": 28.54044741777195, "longitude": -81.35448426824479, "hours": "Mon-Fri 9am-5pm, Sat 9am-1pm", "phone_number": "878-555-1444", "metadata": {"services": ["Safe Deposit Boxes", "Financial Advising", "Notary Public"], "wheelchair_accessible": true, "lobby_hours": "9:00 AM - 5:00 PM"}}
{"id": "loc-090", "type": "BRANCH", "name": "Nova Horizon Orlando Branch #2", "address": "7664 Market St, Orlando, FL 32801", "latitude": 28.54696497888056, "longitude": -81.40075803076617, "hours": "Mon-Fri 9am-5pm, Sat 9am-1pm", "phone_number": "251-555-5262", "metadata": {"services": ["Safe Deposit Boxes", "Financial Advising", "Notary Public"], "wheelchair_accessible": true, "lobby_hours": "9:00 AM - 5:00 PM"}}
{"id": "loc-091", "type": "ATM", "name": "Nova Horizon Irvine ATM #1", "address": "5629 Elm St, Irvine, CA 92602", "latitude": 33.67424116001651, "longitude": -117.829218040499, "hours": "24/7", "phone_number": null, "metadata": {"services": ["Withdrawal", "Deposit", "PIN Change"], "wheelchair_accessible": true, "lobby_hours": null}}
{"id": "loc-092", "type": "ATM", "name": "Nova Horizon Fort Wayne ATM #1", "address": "4233 Broadway, Fort Wayne, IN 46801", "latitude": 41.09442058941329, "longitude": -85.11948454289067, "hours": "24/7", "phone_number": null, "metadata": {"services": ["Withdrawal", "Deposit", "PIN Change"], "wheelchair_accessible": true, "lobby_hours": null}}
{"id": "loc-093", "type": "ATM", "name": "Nova Horizon Jersey City ATM #1", "address": "5833 Oak Ave, Jersey City, NJ 07302", "latitude": 40.688962997222994, "longitude": -74.04073485712465, "hours": "24/7", "phone_number": null, "metadata": {"services": ["Withdrawal", "Deposit", "PIN Change"], "wheelchair_accessible": true, "lobby_hours": null}}
{"id": "loc-094", "type": "BRANCH", "name": "Nova Horizon Durham Branch #1", "address": "608 Oak Ave, Durham, NC 27701", "latitude": 36.010873982976655, "longitude": -78.88949472068536, "hours": "Mon-Fri 9am-5pm, Sat 9am-1pm", "phone_number": "404-555-1333", "metadata": {"services": ["Safe Deposit Boxes", "Financial Advising", "Notary Public"], "wheelchair_accessible": true, "lobby_hours": "9:00 AM - 5:00 PM"}}
{"id": "loc-095", "type": "BRANCH", "name": "Nova Horizon St. Petersburg Branch #1", "address": "1974 Sunset Blvd, St. Petersburg, FL 33701", "latitude": 27.751912696513337, "longitude": -82.64188633634323, "hours": "Mon-Fri 9am-5pm, Sat 9am-1pm", "phone_number": "423-555-8619", "metadata": {"services": ["Safe Deposit Boxes", "Financial Advising", "Notary Public"], "wheelchair_accessible": true, "lobby_hours": "9:00 AM - 5:00 PM"}}
{"id": "loc-096", "type": "BRANCH", "name": "Nova Horizon Laredo Branch #1", "address": "2849 Sunset Blvd, Laredo, TX 78040", "latitude": 27.54256789827477, "longitude": -99.46428611409863, "hours": "Mon-Fri 9am-5pm, Sat 9am-1pm", "phone_number": "821-555-2876", "metadata": {"services": ["Safe Deposit Boxes", "Financial Advising", "Notary Public"], "wheelchair_accessible": true, "lobby_hours": "9:00 AM - 5:00 PM"}}
{"id": "loc-097", "type": "BRANCH", "name": "Nova Horizon Laredo Branch #2", "address": "520 Pine St, Laredo, TX 78040", "latitude": 27.558483246382046, "longitude": -99.50381407502054, "hours": "Mon-Fri 9am-5pm, Sat 9am-1pm", "phone_number": "789-555-7149", "metadata": {"services": ["Safe Deposit Boxes", "Financial Advising", "Notary Public"], "wheelchair_accessible": true, "lobby_hours": "9:00 AM - 5:00 PM"}}
{"id": "loc-098", "type": "BRANCH", "name": "Nova Horizon Buffalo Branch #1", "address": "1345 Sunset Blvd, Buffalo, NY 14201", "latitude": 42.880199266491, "longitude": -78.86549911769703, "hours": "Mon-Fri 9am-5pm, Sat 9am-1pm", "phone_number": "907-555-4978", "metadata": {"services": ["Safe Deposit Boxes", "Financial Advising", "Notary Public"], "wheelchair_accessible": true, "lobby_hours": "9:00 AM - 5:00 PM"}}
{"id": "loc-099", "type": "BRANCH", "name": "Nova Horizon Buffalo Branch #2", "address": "9937 Broadway, Buffalo, NY 14201", "latitude": 42.89823158014975, "longitude": -78.89030503887074, "hours": "Mon-Fri 9am-5pm, Sat 9am-1pm", "phone_number": "779-555-1672", "metadata": {"services": ["Safe Deposit Boxes", "Financial Advising", "Notary Public"], "wheelchair_accessible": true, "lobby_hours": "9:00 AM - 5:00 PM"}}
{"id": "loc-100", "type": "ATM", "name": "Nova Horizon Madison ATM #1", "address": "1229 Park Ln, Madison, WI 53701", "latitude": 43.07506471471863, "longitude": -89.39150871955876, "hours": "24/7", "phone_number": null, "metadata": {"services": ["Withdrawal", "Deposit", "PIN Change"], "wheelchair_accessible": true, "lobby_hours": null}}
